lat,lon,alt,speed,yaw,pitch,roll,id,timestamp
38.28784383301198,21.78801174158009,92.68816869723918,1.339467331624701,171.3563043153114,2.6447646091313732,2.7769741729939312,test,1745413233823
38.28784470833028,21.78800551268215,92.56313557697308,1.1302448940759058,172.81025216247932,-2.3610700499495643,-0.7505078314824987,test,1745413234223
38.28784541065361,21.78800059778032,92.57512597957815,1.2526303525613582,169.1875185007874,-2.9298694509128587,-4.709020218710851,test,1745413234623
38.28784686003118,21.787994014601647,92.68670421540419,1.2637203643592088,170.6755892944488,0.0733728623485419,0.11442273194008479,test,1745413235023
38.28784798161255,21.78798789525772,92.55406596215366,1.2290097808079479,168.85373007866667,-4.74248143508316,-2.166578430713578,test,1745413235423
38.28784897580743,21.787982298475022,92.6603908902354,1.340380719836114,171.34838867043544,4.6161931049657685,1.5274465224489484,test,1745413235823
38.28785006252266,21.78797600042291,92.61517047043417,1.3370477497255981,166.20070778378528,-0.9466888624894629,-4.633178638311605,test,1745413236223
38.287851219039204,21.787970856365853,92.64836016005701,1.3405096161794692,175.21803335250019,0.06326396329137918,1.012820404497905,test,1745413236623
38.287851850583365,21.787964715061364,92.51298923470394,1.3435788474606265,173.7883784088121,-1.8178963539089201,1.0495651307061973,test,1745413237023
38.28785244337196,21.787958860478206,92.6073217470627,1.3109954481777863,177.48565263900363,0.057613239511338676,4.618466792011256,test,1745413237423
38.287852837800344,21.787952410964284,92.62958114916088,1.2784241556909584,172.21148237864162,-2.5373300375490206,2.8424421671471745,test,1745413237823
38.287853602460274,21.787946849046982,92.68922934286303,1.1864399480674437,178.0127521132537,-1.9328982561141759,-4.190773113793147,test,1745413238223
38.28785407951615,21.787937487466678,92.59862328505432,1.1958392728079625,171.09669778262645,2.104378196482335,-2.2102539737030447,test,1745413238623
38.287854860775845,21.787933135684913,92.67071697665455,1.2118555765528423,174.3795030220537,-4.916909318602142,4.99833905224131,test,1745413239023
38.287855407315675,21.787925703177933,92.55542026040476,1.1605374207424943,171.3482533176765,-0.266379092831861,2.625649819275729,test,1745413239423
38.287855926498445,21.78792224828343,92.54354428173261,1.3580084400804628,171.3085722095857,-4.588152640566177,-3.769176532820798,test,1745413239823
38.2878571136241,21.7879149756588,92.57783707459605,1.3215735549988255,177.00778015395468,0.3084338727272993,1.7328034475860914,test,1745413240223
38.28785765752509,21.787907822745073,92.66975831500471,1.2869843770356437,173.1332576209167,-3.3332412534783993,-2.9066807632559533,test,1745413240623
38.28785850711867,21.787901094499464,92.55364369826974,1.1753517480942546,172.2800895101845,-1.203430210851144,2.688824072926481,test,1745413241023
38.28785908829163,21.78789718714538,92.68613430763065,1.1378666119039174,173.36314704459397,3.739398568012586,-4.603530048354585,test,1745413241423
38.28786008878777,21.787889270440534,92.51651371126822,1.2558735106133807,179.54735048714502,1.2003176303767003,-3.030654853188838,test,1745413241823
38.28786023192854,21.787885200029894,92.61193224417688,1.140192344438922,180.5274070529267,-1.6263782836256278,-4.109258870967789,test,1745413242223
38.28786035580295,21.78787768227124,92.55555505709461,1.198725903882548,178.53911132385534,2.0126685611627737,-0.3547938746610244,test,1745413242623
38.28786045997428,21.787871326500248,92.64005497780244,1.3690850862705803,179.281514797417,3.4340432652734343,0.46389178893679084,test,1745413243023
38.287860589844115,21.787865495952285,92.66958755207257,1.3190021597151107,177.61904784922532,-2.107046785273959,-0.4882392254525918,test,1745413243423
38.28786067883714,21.787857870753406,92.6427403280243,1.189439742907499,178.02708193110593,0.44493016126041063,-4.021816108799369,test,1745413243823
38.28786080978721,21.787852572619567,92.61075149463935,1.176462027717413,182.39642277960834,3.3491709006887884,1.157624869847628,test,1745413244223
38.28786050443087,21.787842889526267,92.6252966696173,1.1341087822075737,182.15587783897112,2.1753236998527195,4.050067620149754,test,1745413244623
38.287860102121755,21.787836294519103,92.59913285326888,1.2829185635369134,197.1667738062882,2.5754363470183197,3.7223531965990535,test,1745413245023
38.287857734266595,21.787829337540106,92.64557934293431,1.300757703944122,198.0284981068415,3.9930217304815088,-2.2564160680933396,test,1745413245423
38.28785631023298,21.787824939872497,92.64433796428243,1.3719370471359882,264.36843900827296,0.9479571448975941,3.9806993917809166,test,1745413245823
38.28784803351033,21.78782375767336,92.61579103792657,1.3523244862084383,274.2868656047594,-2.0433279192526532,3.037478091076446,test,1745413246223
38.28784268805841,21.787824128343082,92.65989301824915,1.3508773541148984,275.09803989773275,2.8917334783448485,0.33328199344542675,test,1745413246623
38.287838307007036,21.7878245074081,92.60099146721466,1.1273247176192867,275.84397666145526,0.4200085456703029,-4.403719452153142,test,1745413247023
38.28783341831018,21.787824791577147,92.54211678626481,1.2973163839465873,356.60054474631426,2.8106171780649456,2.5842857780785513,test,1745413247423
38.28783237464665,21.78783721027444,92.67384321805092,1.2997016993253105,353.4878523708204,4.516906945282788,3.927485685573197,test,1745413247823
38.287831594546766,21.787841636409677,92.64846632468577,1.197646934482512,361.8389935089139,0.9966263270331552,-1.6848433514474626,test,1745413248223
38.28783142334049,21.787849257077585,92.57319136583368,1.126926597346591,360.6179496503879,0.5321597993800644,3.3110477647333507,test,1745413248623
38.287831286607265,21.787856903772724,92.64693241828842,1.1862830105328777,359.46718843448247,-0.6750528203591823,-2.5149730954040503,test,1745413249023
38.28783105274988,21.787863332590398,92.52730605593477,1.1725902010815055,3.779283679869662,-1.1097896880506566,2.404019174313321,test,1745413249423
38.287831508687844,21.787870244133813,92.6576913405702,1.1264438749522374,5.294813998446728,-0.5712288142705004,2.304284792167561,test,1745413249823
38.28783208566107,21.787876498894086,92.54051053786687,1.2828944202766612,6.112899397643445,1.3274464914574864,4.277917763413068,test,1745413250223
38.2878327078978,21.787882267185392,92.64363972930927,1.2128800474832933,5.133787536187209,3.6398948617234357,0.536125199863883,test,1745413250623
38.28783314578204,21.787887136285626,92.56380588351652,1.2833860970599105,3.1981280844479043,2.5168492512913225,3.731759352842584,test,1745413251023
38.287833608186574,21.787895379213712,92.67781977654714,1.3073464121463816,2.567872166862826,-0.23660960912565,-0.20994554829734646,test,1745413251423
38.287833788630316,21.787899407877003,92.65060615377746,1.1883307527644102,2.567872166862826,-4.954922134645684,1.5092283643818538,test,1745413251823
