lat,lon,alt,speed,yaw,pitch,roll,id,timestamp
38.287617242,21.787577996,94.01298590881919,3.7668060000050168,0.0,-3.1844706411427293,3.523746051700453,test,1745413233823
38.287617242,21.787577996,94.0114958900916,4.3457001365421375,0.0,-2.883031440801622,1.513891677414506,test,1745413234223
38.287617242,21.787577996,93.94602365445424,3.6004664727541824,0.0,-1.302814291479585,-0.24176980462572928,test,1745413234623
38.287617242,21.787577996,93.9463009309355,4.206142302799039,0.0,2.594530002438785,0.25390657343041134,test,1745413235023
38.287617242,21.787577996,94.0511438412036,3.7117916044598807,0.0,3.2183270425613433,-2.5879745488791195,test,1745413235423
38.287617242,21.787577996,93.96225949586501,4.045005342421025,0.0,-1.9974080459202872,-2.791582672604074,test,1745413235823
38.287617242,21.787577996,93.97795944513251,4.071003691935189,0.0,-0.07391754763573655,-0.030002146901342286,test,1745413236223
38.287617242,21.787577996,93.99895037974908,4.363253479626858,0.0,-1.7673333118434922,-2.790462305303026,test,1745413236623
38.287617242,21.787577996,94.0633081990204,3.961723600163315,0.0,2.2039708639946713,0.36102610316173767,test,1745413237023
38.287617242,21.787577996,94.06335726467279,3.62702247034811,0.0,-2.212150393836004,2.5376065992118324,test,1745413237423
38.287617242,21.787577996,93.97223790587893,3.823542161302586,0.0,-1.5556985458758197,1.7637051797804322,test,1745413237823
38.287617242,21.787577996,93.9388867388627,3.6586979225828213,0.0,-4.471042350652315,1.2836505814707113,test,1745413238223
38.287617242,21.787577996,94.05015392876213,3.6364567343239234,0.0,1.0125254881517787,-1.70320185830243,test,1745413238623
38.287617242,21.787577996,94.06922840378962,4.189008901425153,0.0,2.1064368828701587,1.697036288460346,test,1745413239023
38.287617242,21.787577996,94.00246607917535,4.206612486031224,0.0,2.2987498619443123,2.235119059428751,test,1745413239423
38.287617242,21.787577996,94.01458213182109,3.9256953283374125,0.0,2.0776798932674057,-0.10561711289202336,test,1745413239823
38.287617242,21.787577996,93.93571623963169,3.989701459860023,269.5291456295786,0.6133016016681436,-0.7653664982037576,test,1745413240223
38.287617419133305,21.787584481021455,93.92652151052904,3.7777895515444495,273.89125444017697,-4.358000790676061,-3.369731493774588,test,1745413240623
38.2876176356194,21.787588367541034,93.98779686908502,4.072823822457457,273.31677963199115,-2.263011161367132,3.679180653589576,test,1745413241023
38.28761793593754,21.787595065747784,94.05487475101997,4.313337300865138,270.4711965337224,-4.740029322455515,-3.8162052316598905,test,1745413241423
38.28761809091772,21.787601653390816,94.08533618877551,3.736735647417128,271.6242770161594,4.827382049397883,-0.2472685737014757,test,1745413241823
38.28761832822558,21.78760782656215,93.96284274559277,4.1823120206159885,272.77522990545623,-1.1224051963417505,4.616118192287248,test,1745413242223
38.28761846339393,21.78761245815266,93.92083427807736,3.687954013278114,274.3702810060564,-3.8246735868364903,1.626608927541949,test,1745413242623
38.287618713959816,21.787619298971705,93.98834519732408,4.158765724629935,274.682101460331,4.498769883692024,0.45209484516604537,test,1745413243023
38.28761894734332,21.787623418163616,93.95636669671296,4.293628607346115,269.44127532633786,3.8089209558708568,3.357539663742365,test,1745413243423
38.287619133509736,21.78762986348436,93.94702472568004,3.656429342420173,267.33159479417293,-0.11492108509813725,2.4047956234871197,test,1745413243823
38.287619035711224,21.787636726838198,94.00592520890845,4.2116178709550605,267.8321055071093,-2.913748906879936,0.27600310046815046,test,1745413244223
38.28761884847828,21.787644281110747,93.91460077735184,4.375938189883753,265.92560330474566,-4.738750605840617,1.2870060575080835,test,1745413244623
38.28761871887918,21.787646787293053,93.96490544981141,4.265429370995034,265.7753755479004,-4.669483510669132,1.2950877429799217,test,1745413245023
38.287618503924904,21.78765415522605,93.93285188015972,4.114392007235187,271.02704623486323,4.99484196459963,0.15457378004728461,test,1745413245423
38.28761835228025,21.787660727546058,93.95639167333348,3.80426039317836,267.9396327517023,1.1792255810617425,4.885348819497326,test,1745413245823
38.28761818183201,21.787665077726263,94.0274949812664,3.7995137563087846,268.20368665059164,-0.261848636953534,-0.8398451462350085,test,1745413246223
38.28761802329958,21.78767205549033,93.9584393534399,4.38998172765741,268.71389674206256,0.6450655316253222,-0.238177668246494,test,1745413246623
38.28761783766345,21.7876779053765,93.99422328996357,3.988495607950594,270.1781869351539,3.7919115736494753,1.5550875714202697,test,1745413247023
38.28761770948655,21.787682838998354,94.06651367102114,3.655514782529132,269.73739360548103,-0.5330594067168892,-4.904961372079435,test,1745413247423
38.28761755480949,21.787689906657377,94.06875335569654,4.319274860695875,267.94939130020117,1.5028748424637541,3.6458965711382554,test,1745413247823
38.28761725365401,21.787696367101827,93.95877975494759,4.181536007615155,267.5796927386788,3.4724814088999256,-4.806145208466432,test,1745413248223
38.28761685578796,21.787702763038453,93.95301375819919,4.271636947244518,267.13343449378897,4.845109573499119,-1.9390860636974914,test,1745413248623
38.287616648042224,21.787709036468765,93.91747745671024,3.772837130824656,268.1553563729325,0.7171893078988187,1.3885530476963588,test,1745413249023
38.287616244118084,21.78771574712542,93.92810251448029,3.6300517168695556,267.8007965051377,2.905429338048707,-0.0007840109706878096,test,1745413249423
38.28761596409353,21.787722021410218,94.02983091522093,3.891332391274346,274.4302668776395,-0.11794512928556777,2.4552081226604408,test,1745413249823
38.287616479844765,21.787728385110977,93.93083631147225,3.727219443401331,273.0308785249115,-4.507955905081053,-4.391127072404533,test,1745413250223
38.2876171017763,21.787735743758756,93.99934885149628,4.2257328938859136,274.8271248594144,-0.21663650261301015,-4.754735874805604,test,1745413250623
38.2876173819755,21.787741783958054,94.00143073670657,3.778285305325438,275.14376081165625,3.321406354715325,1.443142188326548,test,1745413251023
38.28761796048313,21.78775033847244,93.90616584603596,3.956629400862602,277.82172815484716,2.723788813376369,0.9802861217417806,test,1745413251423
38.287618597668775,21.787755539275548,93.93692570270532,4.001577343803737,274.70685353109485,-2.925475145264844,-2.9926801780746204,test,1745413251823
38.28761910225291,21.787761077955796,94.04784035551982,3.8726534603794924,265.62226769200896,-0.9203723373423074,-4.451216185939057,test,1745413252223
38.287618504530705,21.787768167515495,93.9714612853544,3.694886020826242,264.3873752970889,4.128526164541114,4.050620352214052,test,1745413252623
38.28761786104046,21.78777314571263,94.01036113259785,3.9985316723604503,266.30222765844974,4.261347021115556,-3.0462543278246756,test,1745413253023
38.287617300156626,21.787778522158924,94.06028294413626,3.887086983130773,266.6785179267732,3.1008622994719417,2.4970362686270198,test,1745413253423
38.28761664877591,21.787786597403013,93.90733476897569,4.077405232901146,262.19157649485595,-4.308975199759935,-0.8015024551422156,test,1745413253823
38.28761600714581,21.78779310574682,94.01284287598904,4.083333610460784,263.9135513339951,-4.308184011582012,-1.104518655258734,test,1745413254223
38.28761537783675,21.78779821661753,94.0595402404319,4.263636687852824,258.2466191294911,2.3159241527521566,4.907011754936409,test,1745413254623
38.28761490718016,21.787801054111135,94.03553360987993,3.698586180998874,264.9230227233825,0.8642996294880314,-4.13953878288144,test,1745413255023
38.28761420554067,21.78780959123192,94.02808790404092,4.259931227923155,264.43590451113624,4.913678849986482,-3.6035211165101577,test,1745413255423
38.287613586027604,21.787816149643213,93.91073819263794,4.359169347055011,267.959156384667,1.4928484717730903,-3.3486037453311246,test,1745413255823
38.287613426018765,21.78782206712956,93.94864403651825,4.02725895043531,268.3495029141344,-0.4510170226905643,-4.081000184765774,test,1745413256223
38.287613209910724,21.787826740752603,94.03038802871072,4.2968933104997475,268.5846496325099,-0.003551425457239965,3.7859309471468876,test,1745413256623
38.287613046634995,21.787833020525003,94.04916950230431,3.6848325987023722,268.36559013256687,4.513828895184037,-2.6913371134757993,test,1745413257023
38.287612884482485,21.78784045246835,93.96241685276857,3.6971463202445114,265.3483334462241,3.7978238798057156,1.3425783156578852,test,1745413257423
38.287612679430616,21.787845784695545,94.04174434120382,3.823455722721514,266.17465257632267,0.6818804199066602,3.1884097842158816,test,1745413257823
38.2876125401255,21.787851706354648,93.96637378434434,4.014699958728615,266.49172847757177,-1.8583205358597468,-0.5203448871295899,test,1745413258223
38.28761230572861,21.787859088423257,93.96428535045204,3.9370991764446006,270.40394900016264,-3.1816283279375144,-2.1484829847378393,test,1745413258623
38.28761214908319,21.78786401942519,93.9695247718888,4.192624083140953,270.35656960691836,4.980319078879901,-3.556272350983928,test,1745413259023
38.28761192932617,21.78787057634537,93.92376689408036,3.688951547298421,268.1681347917193,-3.656103533967734,-4.11731983887608,test,1745413259423
38.287611748506315,21.787874649490607,93.9557654010583,3.828423070027799,266.6832710113915,2.3194058667936934,2.5674791408597875,test,1745413259823
38.28761160937434,21.78788127407945,94.05706725949565,4.238502477182769,268.2031268571914,-0.12153846240200661,0.6076978611887629,test,1745413260223
38.28761137879859,21.787889649032557,94.04141714316305,3.9970080164757733,267.2958417002893,0.6581338332121325,-3.534284416014204,test,1745413260623
38.28761115356754,21.787895087302697,94.02276227114996,4.359528742157478,268.3370176316895,-3.851379649161565,-3.863398858683965,test,1745413261023
38.287611198761255,21.78790138169642,93.9319317482148,3.829119910497224,271.94315413971384,-3.931465571257312,1.9786348918438517,test,1745413261423
38.287611198761255,21.787906683195295,94.00694061743125,4.272874772594744,271.16685704071693,4.978745161683975,-0.6069297147490964,test,1745413261823
38.287611198761255,21.787911729534454,94.0400442411359,4.106837310953769,272.3350883298931,-0.27599264406281954,1.6132838359916875,test,1745413262223
38.287611198761255,21.787917163021714,94.062058618629,4.148892261694628,272.52872630077707,2.8722595820373433,2.0965912036122694,test,1745413262623
38.287611198761255,21.787924806092292,93.93130099557997,4.191065884388008,269.2160902348674,1.2870619993679142,3.672160878905398,test,1745413263023
38.287611198761255,21.787931617720865,94.0563326079896,3.74016842840301,269.31344055140926,1.89350777688567,-2.4064276075616275,test,1745413263423
38.287611198761255,21.787936537772747,94.04318990572156,4.0431604291219845,268.35095223344786,1.2657462024525596,1.8593325701246153,test,1745413263823
38.287611198761255,21.787942297806218,94.05319461424953,4.327376949275957,268.7887187080676,-1.6995219930583625,-2.379802442878236,test,1745413264223
38.287611198761255,21.787949372315612,94.06119543107495,4.193244792309294,268.00282806838624,3.525806997870319,-3.653863691429262,test,1745413264623
38.287611198761255,21.787955586405644,93.92691244024354,4.246357902708962,270.7371742663348,0.2581247129438369,-2.8351016823521324,test,1745413265023
38.287611198761255,21.78796131781662,94.02454114240437,4.057998808835139,270.1364447359062,1.6171553071246558,-2.4302284917897032,test,1745413265423
38.28761098782883,21.787967646987706,94.01544776154296,3.6867295167024143,266.7807938834537,-0.9633190928711723,-1.9623939673305992,test,1745413265823
38.28761082135999,21.7879713321439,93.92559286689804,3.6235666185099342,267.041009865122,-4.707962607196061,4.07398298519454,test,1745413266223
38.28761055971871,21.7879783212494,93.92465429268894,4.06531786373803,265.1438719739364,-3.1393648943151584,1.9499613462447316,test,1745413266623
38.28761037867173,21.78798277298609,93.9146022617255,4.30098432192795,267.5331544917436,-2.8504438708578403,-0.1658708111521019,test,1745413267023
38.28761016235436,21.78799080193694,94.08578099755694,3.8651835884814463,268.4905771608812,4.290709835458779,1.3126631877323742,test,1745413267423
38.287609993207404,21.787995270385853,93.94722527676736,3.6098756779778336,268.9766454853052,1.5012365413348938,-2.66625762285729,test,1745413267823
38.28760978077183,21.788001025406498,93.92821060417468,4.3378856043353125,267.9133710888387,4.0829826473716455,3.594362781651915,test,1745413268223
38.28760961829062,21.78800617995969,94.06667613163116,4.05362818877832,266.80624991110494,-2.595152439712037,-3.754456725221992,test,1745413268623
38.28760943236398,21.788011612230477,94.0823108206747,4.3094338344527054,269.02546659358325,0.3719517226109481,-0.07256259587749359,test,1745413269023
38.28760920774751,21.78801827951233,93.98605881246351,3.9993513661318785,269.81653706571143,-0.915449091717849,-1.9283584752585234,test,1745413269423
38.287609017919564,21.788023808493428,93.92822055452703,3.7863299616642143,269.1530462255464,-2.580943664214793,-2.1585100417931113,test,1745413269823
38.28760881271363,21.788032436217563,93.97116598761794,4.397950734894833,268.48613549605255,-0.1182420984455188,2.9431809083621108,test,1745413270223
38.287608645262814,21.78803539790289,94.02634369931666,3.9260918929459927,269.5682191346604,1.4680814775413946,2.6308408843818665,test,1745413270623
38.287608378330255,21.788040588062646,93.94393936298599,4.025870861864811,267.81860952078154,0.8039690084631745,1.3998844421223708,test,1745413271023
38.287608245573,21.78804748039829,94.0667528751292,4.263864037280112,266.51692375889735,3.7793958719528042,1.4438893786547808,test,1745413271423
38.287608010719055,21.788052559441418,94.08381993386043,3.6600273849382763,268.79893520571403,-3.4417416156385396,1.7533385192195707,test,1745413271823
38.28760808648432,21.788058328466807,93.97466975675147,4.342640719809362,271.135832498528,-1.7043140988528025,-1.4102458414241568,test,1745413272223
38.28760814201703,21.78806467452735,93.92008555403233,3.761567235547324,271.7532987231795,4.742304281202276,-3.4304914419243024,test,1745413272623
38.287608233618705,21.78807109488636,93.91810044588341,3.920178566535067,269.39819879150986,-4.454468629558215,0.39350348604077734,test,1745413273023
38.287608280673496,21.788076787744327,93.9707180675302,4.269282790643456,270.3208431500163,-2.921725273890954,1.3502117287187856,test,1745413273423
38.28760835250482,21.788082561213496,94.00080494676564,3.825250369221655,272.1667089547874,-1.0295293538269457,4.336878438723868,test,1745413273823
38.28760840471986,21.788088736371922,94.0116958150357,3.971265954782684,268.77589567784236,3.290729890479634,-3.437673064057866,test,1745413274223
38.28760847337896,21.788096517294672,93.96123880453649,3.8591716880337503,273.3362488005274,-4.489345310724726,4.069037078564628,test,1745413274623
38.287608540679315,21.78810144229597,93.99199229487394,4.284748853550069,269.006642258176,1.3738465663429515,-4.805373793601672,test,1745413275023
38.28760860735312,21.788107543441168,93.93603647208074,3.855092791529124,269.049999502538,2.1829485705772846,2.2735284443993837,test,1745413275423
38.2876086741998,21.788113305620893,93.97807440635101,3.9060098194424064,269.5569954322293,-0.20971028551426585,3.5588855332326297,test,1745413275823
38.28760874577696,21.78811898706938,94.08186274698294,3.7214001350908883,269.958116648389,0.5752547595204458,-0.6330962670252394,test,1745413276223
38.28760881671199,21.788127081634656,93.97752734995451,4.186770966536235,266.9527824722655,3.5791639112430342,-2.7895551677379347,test,1745413276623
38.28760866100698,21.788131612468526,93.99546445458364,3.9684917231477512,266.93706707075137,-0.772741576981451,-3.3661047040343997,test,1745413277023
38.28760849247787,21.788138688793605,94.00309687739272,3.8003847942765563,267.11713475344794,0.36198689459211675,3.9326099369197003,test,1745413277423
38.28760835016832,21.788143902307915,94.06686468100976,4.079504350311452,270.57044786241084,3.457047823634973,-1.32424214243966,test,1745413277823
38.28760818004551,21.78814984452641,94.03757736975096,4.369620700523834,269.18036569783203,2.383555158760898,-3.1776626860400627,test,1745413278223
38.287608050840205,21.788157622299693,94.0754640231321,3.855578703343028,267.36887808476996,-3.3348439105004823,-1.471010074314684,test,1745413278623
38.28760788182549,21.788162160438148,94.04330029422002,3.799079951772866,266.17990495662787,2.680685632056001,2.531770836020213,test,1745413279023
38.28760770100942,21.78816791657077,93.99300644249765,3.8899195768116037,266.5092529761394,2.812318787293693,-2.623288362446167,test,1745413279423
38.28760753911555,21.788174402230666,94.00489870964766,4.051393924376393,268.2230083818604,-2.761114015381909,-2.7512944776944295,test,1745413279823
38.28760741635012,21.788179807314446,94.08164738155389,4.04118608537114,269.80306607969254,-0.9619976604900149,3.528026087934647,test,1745413280223
38.28760723624776,21.788185846472366,94.03319952827258,4.131186386644261,269.5984623888279,0.15874695508501802,-2.9353008281350568,test,1745413280623
38.2876070452567,21.788190269207035,94.02974131935612,3.943059724343383,271.3012723348183,3.886520888732864,-3.213540893933952,test,1745413281023
38.28760692186244,21.788198830628968,93.98422041901668,3.882125120296749,270.03889050489676,-3.4409470875879355,1.6413655616752179,test,1745413281423
38.28760679654258,21.788203517341383,93.91246750816893,3.8047472790085792,270.71402926957694,-0.8126810191179086,-3.692031544512809,test,1745413281823
38.2876065972379,21.788210592684102,93.95060502985666,4.1233845601202805,266.0334392239728,-2.3262455445704875,-1.2349125906074923,test,1745413282223
38.2876064270175,21.788215415618538,93.96771006314434,4.033961277961743,268.799388278183,-1.080482425977507,-3.027709263771742,test,1745413282623
38.28760633716281,21.788220054006963,93.9435275577144,4.254621177172757,266.5298285841203,-2.831347848380572,4.076695971858637,test,1745413283023
38.28760607432368,21.788227426017247,94.03242389562833,3.8854995331705675,267.88646106363166,-1.0560902455098975,0.5644556231099589,test,1745413283423
38.28760596062662,21.788234177110283,94.04877908416807,4.059593773759108,266.3423635452751,-0.9381551235563617,-2.6392614514686095,test,1745413283823
38.28760585304643,21.788240362019174,94.07708291382103,4.2402416747082965,269.37471209233456,3.1445088591949055,-2.9601687912783214,test,1745413284223
38.28760559189336,21.78824563492149,94.05348665374773,4.2903011202266255,269.99685104339954,1.7673801736829677,2.1253181182840466,test,1745413284623
38.28760580636388,21.78825197811693,94.01776070405377,3.634774466310258,270.2306726107214,2.238475542724397,4.740210154851324,test,1745413285023
38.28760604924665,21.788258895689072,94.05575271461498,3.8834767090024727,274.17938846665663,-1.1043806653017842,1.886831785507173,test,1745413285423
38.28760617378312,21.788263512253337,94.08500026131124,3.6307150429158743,271.09223667049656,2.0209975739200594,0.6150991986346082,test,1745413285823
38.28760645205659,21.788270911796936,93.9707420949918,4.120571165216538,272.09584789591605,2.9631521674791568,1.7054739758824518,test,1745413286223
38.28760664460105,21.78827703962612,94.04214329193451,4.104485801956644,274.6472853036847,-0.9255014080336954,1.8104817201488386,test,1745413286623
38.28760681471026,21.78828158351349,94.04953940985979,4.227910849800398,273.92211274390513,-4.525924952675466,3.225711377846075,test,1745413287023
38.287607074269815,21.788289712698216,94.04246630389225,3.9621949312831286,269.13655746500757,-0.3272289987418002,-3.193255618450813,test,1745413287423
38.28760720256429,21.788295920996454,93.92652177731023,3.7006774765015065,270.1324385543817,-0.8769999299749074,-0.20171581172472486,test,1745413287823
38.28760736265898,21.78830143939338,94.03319577969154,3.8327801973866436,273.002742092836,0.8138636703137703,1.847317414892511,test,1745413288223
38.28760751122294,21.78830670278246,93.92703269856338,4.331831707385416,270.61352237876827,-2.7440485355908297,4.352540437131136,test,1745413288623
38.28760773356586,21.78831054186321,94.06460554082888,4.230475177504325,270.52221201218737,-1.0727527769919831,0.3870475826744926,test,1745413289023
38.28760784850736,21.788317021838562,94.0133873179058,4.307061572739662,269.4166882290593,-3.8332769233903328,-3.978350108056097,test,1745413289423
38.28760801949256,21.78832344005205,93.98767199860052,4.250509991008307,272.7237063274215,2.0357649888744227,2.1592596030231634,test,1745413289823
38.287608203582025,21.78832951786927,94.05391427077818,4.191433995969079,271.98845329385176,2.77891049095076,0.4793569250733496,test,1745413290223
38.28760831455714,21.78833424520867,94.08685382349962,3.7573913428739045,268.7898897800993,-1.6618387124659986,-0.9421518193942733,test,1745413290623
38.28760848112085,21.788342900735753,94.01955251595983,4.38743341168547,275.7601702857733,2.2761907499732272,1.2079918152730134,test,1745413291023
38.28760867990261,21.788346126559745,93.91766044257012,3.6705763045024398,269.9960589699734,1.5375297140773156,3.3641813258478077,test,1745413291423
38.28760881498065,21.788352202706434,94.0167339540068,4.274528165819443,265.0389945372882,1.9145319833232568,2.3839693418331462,test,1745413291823
38.28760857591776,21.788357955003523,93.9820675025255,4.171561071192567,268.01447050850237,-2.0599455892132346,2.8230216911009,test,1745413292223
38.28760847639466,21.78836496659155,94.07614529673928,4.310326115417735,266.4180682777258,-3.9213565097577394,3.8426927799489565,test,1745413292623
38.287608278639325,21.788372126244433,93.93512795500378,3.8579403216470616,270.7183184537838,-4.760757195016203,-3.8696974558148876,test,1745413293023
38.28760810705349,21.788377699002584,93.94057498642286,3.6738369532712523,266.747677474996,-2.5697316851069996,4.481003114087459,test,1745413293423
38.28760790996168,21.788383951737693,94.02181415519966,3.910712012567425,270.8092017109464,0.6509733041636281,-2.5337075178444444,test,1745413293823
38.28760772313654,21.788390897595608,94.08295316516431,4.319400324485815,264.8452591567338,2.064357053271375,-0.13028707341335277,test,1745413294223
38.28760755917321,21.78839412358069,94.06344430245382,3.8141960271450874,271.47903284255364,-4.936388247296449,4.184790926236047,test,1745413294623
38.287607396054334,21.788402220670992,94.03405230793086,4.368935274797414,267.97608409209624,-4.1179104393879316,3.7471177562042595,test,1745413295023
38.287607296107794,21.78840967595522,94.06820741922276,3.9880880107253613,267.08081192978904,-1.159283461318461,1.4251967263753507,test,1745413295423
38.287607223208965,21.788415533609797,94.04877350824695,3.737214206481945,268.9217734581771,2.0211612945536963,2.167644898310222,test,1745413295823
38.287607223208965,21.788421574287813,93.99764893698926,3.6839005975616885,268.59013289881676,4.248640402913804,-0.17509981276394804,test,1745413296223
38.287607223208965,21.788428693371763,93.908344791533,3.9171827462760995,269.88396895790703,0.6251428586532493,-3.700462129065131,test,1745413296623
38.287607223208965,21.788433832667465,93.94873894317752,3.885339336999251,271.2162151907611,-0.3696475685929821,3.063940526809894,test,1745413297023
38.287607223208965,21.788441277217153,93.96981913145135,3.7800141184608003,269.5617635858828,-4.292994063616758,-1.1579608646593198,test,1745413297423
38.287607223208965,21.78844658769976,93.96592310747111,3.737028652116632,267.59125524683213,0.08833919026895476,-0.48360537939412307,test,1745413297823
38.287607223208965,21.788453010510203,94.00941900583307,3.6315877340267635,253.55096149899038,-0.7953692955200609,1.7735024111472732,test,1745413298223
38.28760501601485,21.788461280796007,94.0812370004959,3.9207948635074086,253.0534030864788,-0.9063503502668002,4.172249558046243,test,1745413298623
38.28760314187977,21.788467207397307,94.09395583045115,4.059898169470229,245.14659015587162,0.11272965179183192,3.5186752956988023,test,1745413299023
38.287600730248286,21.7884726514671,94.06288317152054,4.334338634605778,189.9862788086782,-3.410404439866862,4.193315130915021,test,1745413299423
38.28759542401152,21.788473497260604,93.96298003239315,3.8408645012200977,183.52105409033987,-3.3854094527005762,1.6846131753068185,test,1745413299823
38.28758988325592,21.78847371606612,94.0458420104147,4.011141376280145,182.64587140473986,-3.1274754275489425,-2.0219694178983016,test,1745413300223
38.28758434724166,21.788473873950757,94.08529182037091,4.357708286954778,183.4559511798014,0.992837944064898,-0.2197713497275675,test,1745413300623
38.28758007269416,21.788474121504002,93.92344247293313,3.948093185321483,181.0488569359158,-1.3763950535013878,3.326797641469689,test,1745413301023
38.28757468329327,21.78847428862365,93.97041624960644,4.260214520040767,175.84835594409313,1.1399973002885524,-3.415215434165236,test,1745413301423
38.28756950847836,21.788474002292052,94.02972827650251,4.380627424736832,178.6408423801823,-3.073940695271439,-4.647932978697062,test,1745413301823
38.28756562751563,21.788473834617704,94.08639157897217,3.9792874388780386,177.99751407655052,-2.83864178150272,4.118438055551204,test,1745413302223
38.2875613434006,21.78847365211249,93.9146211179519,3.7827615138123947,179.25141402536696,4.960969856129289,-3.158500670686574,test,1745413302623
38.28755517763395,21.788473459538235,94.0503162619981,3.9266021718609845,176.26700732170275,0.602698609418642,-2.3657107772571315,test,1745413303023
38.2875501200955,21.788473266499043,94.0335974346651,3.798242138793351,177.61739976993337,2.6009733622966067,-4.124601823303726,test,1745413303423
38.28754696921007,21.788473046839545,94.05709670958744,4.394602858648313,176.79870791145862,-4.955520677133499,-1.2486002554155071,test,1745413303823
38.28754126741639,21.78847285387089,94.04766649020964,3.7112922777229502,175.9719673447505,0.7974121019726477,1.0272562246533612,test,1745413304223
38.28753709272832,21.788472608003946,94.07758993229412,3.9845163486092985,179.28238405823936,-4.353112930504882,-0.9616829652271583,test,1745413304623
38.28753257853195,21.788472464096703,93.90680985498797,3.603332599049232,177.3161890795202,-4.224016533724983,4.717137450299049,test,1745413305023
38.28752754634097,21.788472227612306,94.07442576723845,3.715706250502329,180.28409121029625,1.6905359556153075,-4.250322128156685,test,1745413305423
38.287522025209384,21.788472247577886,94.01731877696457,3.838064007525692,178.66189459238254,1.8141032019706458,-2.8638934826301643,test,1745413305823
38.287517321450814,21.788472247577886,94.00953990308601,4.3001255817727415,178.69551843512536,-3.822627633298541,4.994055336080246,test,1745413306223
38.28751155694406,21.788472247577886,94.00608955430747,4.314164648013037,178.21389648257778,4.472467328556066,-3.2624462456793824,test,1745413306623
38.287509831093466,21.788472247577886,94.00055480615829,4.219494752900868,179.860022683693,0.4323027811610727,1.2094479826593254,test,1745413307023
38.287503814239194,21.788472247577886,93.9326845656084,3.757075478400317,181.69193412922542,0.7417255608126903,-1.4941906798928892,test,1745413307423
38.28749892046737,21.788472247577886,93.99195855059017,4.396293078576554,180.7193854214447,4.133940727168804,-4.312350070634027,test,1745413307823
38.28749370591442,21.788472247577886,94.05588288811025,3.81322718641924,181.56992161341964,2.2332727633516347,0.8562625209114936,test,1745413308223
38.2874891112863,21.788472247577886,93.9626628616208,3.820022946800936,179.04165863613375,-1.4296615753677857,3.129499250354902,test,1745413308623
38.28748496778196,21.788472247577886,93.91950005268791,3.7478790896860663,181.50152728525035,3.366348845124101,2.8319146165607982,test,1745413309023
38.287477778728864,21.788472247577886,93.9802577238424,3.712991418573089,179.50085398334707,-0.30611045127958736,-2.968890773692765,test,1745413309423
38.28747562007635,21.788472247577886,94.01056553497489,4.35596816220292,178.90469265269476,-0.30657495395034573,2.322655069895183,test,1745413309823
38.28746892721374,21.788472247577886,94.01640675370587,3.8555747346063107,179.25216845461674,-2.626415413778714,-3.606202672236749,test,1745413310223
38.28746463717281,21.788472247577886,93.93253851313162,3.9251089736266915,180.63692837610768,-3.094936958565917,-2.9438960337023277,test,1745413310623
38.2874602949482,21.788472247577886,94.08937978273171,4.276948066301623,178.68369084850184,1.462457727240766,3.836694996675794,test,1745413311023
38.287453932031596,21.788472247577886,94.06447447377816,4.123303171709107,178.68369084850184,-1.873871554126294,-0.9877120661825192,test,1745413311423
